[{"Country": "United Arab Emirates", "CountryCode": "AE", "Latitude": 25.309469444, "Longitude": 55.342811111, "RegionName": "Al Mamzar", "Population": 0, "Region": "Emirate of Dubai"}, {"Country": "Afghanistan", "CountryCode": "AF", "Latitude": 34.8347, "Longitude": 70.3603, "RegionName": "Alingar", "Population": 0, "Region": "Laghman"}, {"Country": "Afghanistan", "CountryCode": "AF", "Latitude": 33.466962, "Longitude": 67.238846, "RegionName": "Ajristan District", "Population": 0, "Region": "Ghazni"}, {"Country": "Afghanistan", "CountryCode": "AF", "Latitude": 33.705277777, "Longitude": 61.995555555, "RegionName": "Adraskan District", "Population": 0, "Region": "Herat Province"}, {"Country": "Afghanistan", "CountryCode": "AF", "Latitude": 33.773888888, "Longitude": 69.339722222, "RegionName": "Ahmadabad District", "Population": 0, "Region": "Paktia Zurmat"}, {"Country": "Afghanistan", "CountryCode": "AF", "Latitude": 34.925555555, "Longitude": 69.809166666, "RegionName": "Alasay", "Population": 0, "Region": "Kapisa"}, {"Country": "Afghanistan", "CountryCode": "AF", "Latitude": 34.925, "Longitude": 62.901666666, "RegionName": "Ab Kamari", "Population": 0, "Region": "Badghis"}, {"Country": "Afghanistan", "CountryCode": "AF", "Latitude": 32.983, "Longitude": 67.967, "RegionName": "Ab Band District", "Population": 0, "Region": "Ghazni"}, {"Country": "Afghanistan", "CountryCode": "AF", "Latitude": 34.0894, "Longitude": 70.683, "RegionName": "Achin", "Population": 0, "Region": "Nangarhar"}, {"Country": "Afghanistan", "CountryCode": "AF", "Latitude": 36.53, "Longitude": 68.877777777, "RegionName": "Ali Abad", "Population": 0, "Region": "Kunduz"}]